[
    {
        "position": {
            "lat": "25.0421407",
            "lng": "121.5198716",
            "zoom": "9"
        },
        "postal": "100",
        "id": "1",
        "cwb_id": "6300500",
        "name": "中正區"
    },
    {
        "position": {
            "lat": "25.0627243",
            "lng": "121.5113064",
            "zoom": "13"
        },
        "postal": "103",
        "id": "2",
        "cwb_id": "6300600",
        "name": "大同區"
    },
    {
        "position": {
            "lat": "25.0792018",
            "lng": "121.5427093",
            "zoom": "13"
        },
        "postal": "104",
        "id": "3",
        "cwb_id": "6300400",
        "name": "中山區"
    },
    {
        "position": {
            "lat": "25.0552958",
            "lng": "121.5541264",
            "zoom": "12"
        },
        "postal": "105",
        "id": "4",
        "cwb_id": "6300100",
        "name": "松山區"
    },
    {
        "position": {
            "lat": "25.0261583",
            "lng": "121.5427093",
            "zoom": "13"
        },
        "postal": "106",
        "id": "5",
        "cwb_id": "6300300",
        "name": "大安區"
    },
    {
        "position": {
            "lat": "25.0262857",
            "lng": "121.4970294",
            "zoom": "13"
        },
        "postal": "108",
        "id": "6",
        "cwb_id": "6300700",
        "name": "萬華區"
    },
    {
        "position": {
            "lat": "25.0287024",
            "lng": "121.5769572",
            "zoom": "11"
        },
        "postal": "110",
        "id": "7",
        "cwb_id": "6300200",
        "name": "信義區"
    },
    {
        "position": {
            "lat": "25.0950492",
            "lng": "121.5246077",
            "zoom": "13"
        },
        "postal": "111",
        "id": "8",
        "cwb_id": "6301100",
        "name": "士林區"
    },
    {
        "position": {
            "lat": "25.1151759",
            "lng": "121.515018",
            "zoom": "11"
        },
        "postal": "112",
        "id": "9",
        "cwb_id": "6301200",
        "name": "北投區"
    },
    {
        "position": {
            "lat": "25.0689422",
            "lng": "121.5909027",
            "zoom": "11"
        },
        "postal": "114",
        "id": "10",
        "cwb_id": "6301000",
        "name": "內湖區"
    },
    {
        "position": {
            "lat": "25.0312347",
            "lng": "121.6111949",
            "zoom": "13"
        },
        "postal": "115",
        "id": "11",
        "cwb_id": "6300900",
        "name": "南港區"
    },
    {
        "position": {
            "lat": "24.9929212",
            "lng": "121.57125",
            "zoom": "13"
        },
        "postal": "116",
        "id": "12",
        "cwb_id": "6300800",
        "name": "文山區"
    },
    {
        "position": {
            "lat": "25.1187161",
            "lng": "121.7451927",
            "zoom": "9"
        },
        "postal": "200",
        "id": "13",
        "cwb_id": "1001704",
        "name": "仁愛區"
    },
    {
        "position": {
            "lat": "25.1284336",
            "lng": "121.7822278",
            "zoom": "12"
        },
        "postal": "201",
        "id": "14",
        "cwb_id": "1001707",
        "name": "信義區"
    },
    {
        "position": {
            "lat": "25.1489988",
            "lng": "121.7736823",
            "zoom": "13"
        },
        "postal": "202",
        "id": "15",
        "cwb_id": "1001701",
        "name": "中正區"
    },
    {
        "position": {
            "lat": "25.152587",
            "lng": "121.7252457",
            "zoom": "12"
        },
        "postal": "203",
        "id": "16",
        "cwb_id": "1001705",
        "name": "中山區"
    },
    {
        "position": {
            "lat": "25.1474144",
            "lng": "121.7024448",
            "zoom": "11"
        },
        "postal": "204",
        "id": "17",
        "cwb_id": "1001706",
        "name": "安樂區"
    },
    {
        "position": {
            "lat": "25.0836163",
            "lng": "121.748042",
            "zoom": "12"
        },
        "postal": "205",
        "id": "18",
        "cwb_id": "1001703",
        "name": "暖暖區"
    },
    {
        "position": {
            "lat": "25.1143924",
            "lng": "121.685341",
            "zoom": "11"
        },
        "postal": "206",
        "id": "19",
        "cwb_id": "1001702",
        "name": "七堵區"
    },
    {
        "position": {
            "lat": "25.1676024",
            "lng": "121.6397184",
            "zoom": "11"
        },
        "postal": "207",
        "id": "20",
        "cwb_id": "6502800",
        "name": "萬里區"
    },
    {
        "position": {
            "lat": "25.22508",
            "lng": "121.638625",
            "zoom": "11"
        },
        "postal": "208",
        "id": "21",
        "cwb_id": "6502700",
        "name": "金山區"
    },
    {
        "position": {
            "lat": "25.0114095",
            "lng": "121.4618415",
            "zoom": "11"
        },
        "postal": "220",
        "id": "26",
        "cwb_id": "6500100",
        "name": "板橋區"
    },
    {
        "position": {
            "lat": "25.0616059",
            "lng": "121.6397184",
            "zoom": "11"
        },
        "postal": "221",
        "id": "27",
        "cwb_id": "6501100",
        "name": "汐止區"
    },
    {
        "position": {
            "lat": "25.0033792",
            "lng": "121.6169002",
            "zoom": "12"
        },
        "postal": "222",
        "id": "28",
        "cwb_id": "6501800",
        "name": "深坑區"
    },
    {
        "position": {
            "lat": "25.0098662",
            "lng": "121.6452827",
            "zoom": "13"
        },
        "postal": "223",
        "id": "29",
        "cwb_id": "6501900",
        "name": "石碇區"
    },
    {
        "position": {
            "lat": "25.103052",
            "lng": "121.822098",
            "zoom": "11"
        },
        "postal": "224",
        "id": "30",
        "cwb_id": "6501200",
        "name": "瑞芳區"
    },
    {
        "position": {
            "lat": "25.0248314",
            "lng": "121.7408654",
            "zoom": "11"
        },
        "postal": "226",
        "id": "31",
        "cwb_id": "6502400",
        "name": "平溪區"
    },
    {
        "position": {
            "lat": "24.9971842",
            "lng": "121.822098",
            "zoom": "11"
        },
        "postal": "227",
        "id": "32",
        "cwb_id": "6502500",
        "name": "雙溪區"
    },
    {
        "position": {
            "lat": "25.0168762",
            "lng": "121.9459786",
            "zoom": "8"
        },
        "postal": "228",
        "id": "33",
        "cwb_id": "6502600",
        "name": "貢寮區"
    },
    {
        "position": {
            "lat": "24.978282",
            "lng": "121.5394822",
            "zoom": "11"
        },
        "postal": "231",
        "id": "34",
        "cwb_id": "6500600",
        "name": "新店區"
    },
    {
        "position": {
            "lat": "24.9350844",
            "lng": "121.7107613",
            "zoom": "9"
        },
        "postal": "232",
        "id": "35",
        "cwb_id": "6502000",
        "name": "坪林區"
    },
    {
        "position": {
            "lat": "24.8663721",
            "lng": "121.5497801",
            "zoom": "10"
        },
        "postal": "233",
        "id": "36",
        "cwb_id": "6502900",
        "name": "烏來區"
    },
    {
        "position": {
            "lat": "25.0103251",
            "lng": "121.5145353",
            "zoom": "11"
        },
        "postal": "234",
        "id": "37",
        "cwb_id": "6500400",
        "name": "永和區"
    },
    {
        "position": {
            "lat": "24.9962178",
            "lng": "121.4853103",
            "zoom": "12"
        },
        "postal": "235",
        "id": "38",
        "cwb_id": "6500300",
        "name": "中和區"
    },
    {
        "position": {
            "lat": "24.968371",
            "lng": "121.438034",
            "zoom": "13"
        },
        "postal": "236",
        "id": "39",
        "cwb_id": "6501300",
        "name": "土城區"
    },
    {
        "position": {
            "lat": "24.9358605",
            "lng": "121.3744903",
            "zoom": "11"
        },
        "postal": "237",
        "id": "40",
        "cwb_id": "6500900",
        "name": "三峽區"
    },
    {
        "position": {
            "lat": "24.9815605",
            "lng": "121.4198606",
            "zoom": "12"
        },
        "postal": "238",
        "id": "41",
        "cwb_id": "6500700",
        "name": "樹林區"
    },
    {
        "position": {
            "lat": "24.9614967",
            "lng": "121.3427262",
            "zoom": "13"
        },
        "postal": "239",
        "id": "42",
        "cwb_id": "6500800",
        "name": "鶯歌區"
    },
    {
        "position": {
            "lat": "25.0614534",
            "lng": "121.4867114",
            "zoom": "12"
        },
        "postal": "241",
        "id": "43",
        "cwb_id": "6500200",
        "name": "三重區"
    },
    {
        "position": {
            "lat": "25.0265985",
            "lng": "121.4178347",
            "zoom": "11"
        },
        "postal": "242",
        "id": "44",
        "cwb_id": "6500500",
        "name": "新莊區"
    },
    {
        "position": {
            "lat": "25.0581641",
            "lng": "121.4327919",
            "zoom": "13"
        },
        "postal": "243",
        "id": "45",
        "cwb_id": "6501600",
        "name": "泰山區"
    },
    {
        "position": {
            "lat": "25.0790108",
            "lng": "121.3881378",
            "zoom": "11"
        },
        "postal": "244",
        "id": "46",
        "cwb_id": "6501700",
        "name": "林口區"
    },
    {
        "position": {
            "lat": "25.0868908",
            "lng": "121.4715241",
            "zoom": "13"
        },
        "postal": "247",
        "id": "47",
        "cwb_id": "6501400",
        "name": "蘆洲區"
    },
    {
        "position": {
            "lat": "25.0848317",
            "lng": "121.4386586",
            "zoom": "12"
        },
        "postal": "248",
        "id": "48",
        "cwb_id": "6501500",
        "name": "五股區"
    },
    {
        "position": {
            "lat": "25.1443896",
            "lng": "121.3983016",
            "zoom": "11"
        },
        "postal": "249",
        "id": "49",
        "cwb_id": "6502300",
        "name": "八里區"
    },
    {
        "position": {
            "lat": "25.1719805",
            "lng": "121.4433706",
            "zoom": "10"
        },
        "postal": "251",
        "id": "50",
        "cwb_id": "6501000",
        "name": "淡水區"
    },
    {
        "position": {
            "lat": "25.2593452",
            "lng": "121.5024341",
            "zoom": "11"
        },
        "postal": "252",
        "id": "51",
        "cwb_id": "6502100",
        "name": "三芝區"
    },
    {
        "position": {
            "lat": "25.2908277",
            "lng": "121.5671383",
            "zoom": "8"
        },
        "postal": "253",
        "id": "52",
        "cwb_id": "6502200",
        "name": "石門區"
    },
    {
        "position": {
            "lat": "26.1534361",
            "lng": "119.9306863",
            "zoom": "10"
        },
        "postal": "209",
        "id": "22",
        "cwb_id": "0900701",
        "name": "南竿鄉"
    },
    {
        "position": {
            "lat": "26.2244823",
            "lng": "119.9942867",
            "zoom": "7"
        },
        "postal": "210",
        "id": "23",
        "cwb_id": "0900702",
        "name": "北竿鄉"
    },
    {
        "position": {
            "lat": "25.9768466",
            "lng": "119.9306863",
            "zoom": "9"
        },
        "postal": "211",
        "id": "24",
        "cwb_id": "0900703",
        "name": "莒光鄉"
    },
    {
        "position": {
            "lat": "26.3656992",
            "lng": "120.4904831",
            "zoom": "1"
        },
        "postal": "212",
        "id": "25",
        "cwb_id": "0900704",
        "name": "東引鄉"
    },
    {
        "position": {
            "lat": "24.7591148",
            "lng": "121.7537404",
            "zoom": "1"
        },
        "postal": "260",
        "id": "53",
        "cwb_id": "1000201",
        "name": "宜蘭市"
    },
    {
        "position": {
            "lat": "24.9440106",
            "lng": "121.8676464",
            "zoom": "10"
        },
        "postal": "261",
        "id": "54",
        "cwb_id": "1000204",
        "name": "頭城鎮"
    },
    {
        "position": {
            "lat": "24.8068769",
            "lng": "121.7309452",
            "zoom": "11"
        },
        "postal": "262",
        "id": "55",
        "cwb_id": "1000205",
        "name": "礁溪鄉"
    },
    {
        "position": {
            "lat": "24.769569",
            "lng": "121.7993168",
            "zoom": "11"
        },
        "postal": "263",
        "id": "56",
        "cwb_id": "1000206",
        "name": "壯圍鄉"
    },
    {
        "position": {
            "lat": "24.7381293",
            "lng": "121.662532",
            "zoom": "11"
        },
        "postal": "264",
        "id": "57",
        "cwb_id": "1000207",
        "name": "員山鄉"
    },
    {
        "position": {
            "lat": "24.675606",
            "lng": "121.7708337",
            "zoom": "11"
        },
        "postal": "265",
        "id": "58",
        "cwb_id": "1000202",
        "name": "羅東鎮"
    },
    {
        "position": {
            "lat": "24.6744894",
            "lng": "121.662532",
            "zoom": "10"
        },
        "postal": "266",
        "id": "59",
        "cwb_id": "1000210",
        "name": "三星鄉"
    },
    {
        "position": {
            "lat": "24.5498206",
            "lng": "121.5141615",
            "zoom": "9"
        },
        "postal": "267",
        "id": "60",
        "cwb_id": "1000211",
        "name": "大同鄉"
    },
    {
        "position": {
            "lat": "24.6887633",
            "lng": "121.8050125",
            "zoom": "11"
        },
        "postal": "268",
        "id": "61",
        "cwb_id": "1000209",
        "name": "五結鄉"
    },
    {
        "position": {
            "lat": "24.631919",
            "lng": "121.7537404",
            "zoom": "11"
        },
        "postal": "269",
        "id": "62",
        "cwb_id": "1000208",
        "name": "冬山鄉"
    },
    {
        "position": {
            "lat": "24.568141",
            "lng": "121.8448745",
            "zoom": "9"
        },
        "postal": "270",
        "id": "63",
        "cwb_id": "1000203",
        "name": "蘇澳鎮"
    },
    {
        "position": {
            "lat": "24.4065995",
            "lng": "121.6739371",
            "zoom": "9"
        },
        "postal": "272",
        "id": "64",
        "cwb_id": "1000212",
        "name": "南澳鄉"
    },
    {
        "position": {
            "lat": "24.7920604",
            "lng": "120.9933678",
            "zoom": "11"
        },
        "postal": "300",
        "id": "65",
        "cwb_id": "1001801",
        "name": "東區"
    },
    {
        "position": {
            "lat": "24.7798216",
            "lng": "120.9302603",
            "zoom": "11"
        },
        "postal": "300",
        "id": "66",
        "cwb_id": "1001803",
        "name": "香山區"
    },
    {
        "position": {
            "lat": "24.8238676",
            "lng": "120.9474747",
            "zoom": "11"
        },
        "postal": "300",
        "id": "67",
        "cwb_id": "1001802",
        "name": "北區"
    },
    {
        "position": {
            "lat": "24.8346871",
            "lng": "120.9933678",
            "zoom": "9"
        },
        "postal": "302",
        "id": "68",
        "cwb_id": "1000401",
        "name": "竹北市"
    },
    {
        "position": {
            "lat": "24.8814458",
            "lng": "121.0449768",
            "zoom": "11"
        },
        "postal": "303",
        "id": "69",
        "cwb_id": "1000405",
        "name": "湖口鄉"
    },
    {
        "position": {
            "lat": "24.9132859",
            "lng": "120.9991032",
            "zoom": "11"
        },
        "postal": "304",
        "id": "70",
        "cwb_id": "1000406",
        "name": "新豐鄉"
    },
    {
        "position": {
            "lat": "24.8496061",
            "lng": "121.0908329",
            "zoom": "11"
        },
        "postal": "305",
        "id": "71",
        "cwb_id": "1000403",
        "name": "新埔鎮"
    },
    {
        "position": {
            "lat": "24.8044851",
            "lng": "121.1481284",
            "zoom": "10"
        },
        "postal": "306",
        "id": "72",
        "cwb_id": "1000404",
        "name": "關西鎮"
    },
    {
        "position": {
            "lat": "24.765792",
            "lng": "121.1080244",
            "zoom": "11"
        },
        "postal": "307",
        "id": "73",
        "cwb_id": "1000407",
        "name": "芎林鄉"
    },
    {
        "position": {
            "lat": "24.7427912",
            "lng": "120.9991032",
            "zoom": "10"
        },
        "postal": "308",
        "id": "74",
        "cwb_id": "1000410",
        "name": "寶山鄉"
    },
    {
        "position": {
            "lat": "24.774922",
            "lng": "121.0449768",
            "zoom": "11"
        },
        "postal": "310",
        "id": "75",
        "cwb_id": "1000402",
        "name": "竹東鎮"
    },
    {
        "position": {
            "lat": "24.5915441",
            "lng": "121.1481284",
            "zoom": "9"
        },
        "postal": "311",
        "id": "76",
        "cwb_id": "1000413",
        "name": "五峰鄉"
    },
    {
        "position": {
            "lat": "24.7113011",
            "lng": "121.1366715",
            "zoom": "11"
        },
        "postal": "312",
        "id": "77",
        "cwb_id": "1000408",
        "name": "橫山鄉"
    },
    {
        "position": {
            "lat": "24.5760667",
            "lng": "121.3084088",
            "zoom": "10"
        },
        "postal": "313",
        "id": "78",
        "cwb_id": "1000412",
        "name": "尖石鄉"
    },
    {
        "position": {
            "lat": "24.6631393",
            "lng": "121.067907",
            "zoom": "10"
        },
        "postal": "314",
        "id": "79",
        "cwb_id": "1000409",
        "name": "北埔鄉"
    },
    {
        "position": {
            "lat": "24.6788411",
            "lng": "120.9991032",
            "zoom": "11"
        },
        "postal": "315",
        "id": "80",
        "cwb_id": "1000411",
        "name": "峨眉鄉"
    },
    {
        "position": {
            "lat": "24.9721514",
            "lng": "121.2053963",
            "zoom": "11"
        },
        "postal": "320",
        "id": "81",
        "cwb_id": "6800200",
        "name": "中壢區"
    },
    {
        "position": {
            "lat": "24.9296022",
            "lng": "121.2053963",
            "zoom": "11"
        },
        "postal": "324",
        "id": "82",
        "cwb_id": "6801000",
        "name": "平鎮區"
    },
    {
        "position": {
            "lat": "24.8444927",
            "lng": "121.2053963",
            "zoom": "11"
        },
        "postal": "325",
        "id": "83",
        "cwb_id": "6800900",
        "name": "龍潭區"
    },
    {
        "position": {
            "lat": "24.9242108",
            "lng": "121.1366715",
            "zoom": "10"
        },
        "postal": "326",
        "id": "84",
        "cwb_id": "6800400",
        "name": "楊梅區"
    },
    {
        "position": {
            "lat": "24.9826597",
            "lng": "121.067907",
            "zoom": "11"
        },
        "postal": "327",
        "id": "85",
        "cwb_id": "6801100",
        "name": "新屋區"
    },
    {
        "position": {
            "lat": "25.0359365",
            "lng": "121.1137544",
            "zoom": "10"
        },
        "postal": "328",
        "id": "86",
        "cwb_id": "6801200",
        "name": "觀音區"
    },
    {
        "position": {
            "lat": "24.9934099",
            "lng": "121.2969674",
            "zoom": "9"
        },
        "postal": "330",
        "id": "87",
        "cwb_id": "6800100",
        "name": "桃園區"
    },
    {
        "position": {
            "lat": "25.0199092",
            "lng": "121.3655989",
            "zoom": "11"
        },
        "postal": "333",
        "id": "88",
        "cwb_id": "6800700",
        "name": "龜山區"
    },
    {
        "position": {
            "lat": "24.9469059",
            "lng": "121.2912463",
            "zoom": "11"
        },
        "postal": "334",
        "id": "89",
        "cwb_id": "6800800",
        "name": "八德區"
    },
    {
        "position": {
            "lat": "24.8658422",
            "lng": "121.2969674",
            "zoom": "10"
        },
        "postal": "335",
        "id": "90",
        "cwb_id": "6800300",
        "name": "大溪區"
    },
    {
        "position": {
            "lat": "24.709089",
            "lng": "121.3770336",
            "zoom": "8"
        },
        "postal": "336",
        "id": "91",
        "cwb_id": "6801300",
        "name": "復興區"
    },
    {
        "position": {
            "lat": "25.0492632",
            "lng": "121.193945",
            "zoom": "11"
        },
        "postal": "337",
        "id": "92",
        "cwb_id": "6800600",
        "name": "大園區"
    },
    {
        "position": {
            "lat": "25.0784359",
            "lng": "121.2969674",
            "zoom": "10"
        },
        "postal": "338",
        "id": "93",
        "cwb_id": "6800500",
        "name": "蘆竹區"
    },
    {
        "position": {
            "lat": "24.7009219",
            "lng": "120.8786026",
            "zoom": "10"
        },
        "postal": "350",
        "id": "94",
        "cwb_id": "1000504",
        "name": "竹南鎮"
    },
    {
        "position": {
            "lat": "24.6784041",
            "lng": "120.907304",
            "zoom": "11"
        },
        "postal": "351",
        "id": "95",
        "cwb_id": "1000505",
        "name": "頭份鎮"
    },
    {
        "position": {
            "lat": "24.6305288",
            "lng": "120.9302603",
            "zoom": "11"
        },
        "postal": "352",
        "id": "96",
        "cwb_id": "1000516",
        "name": "三灣鄉"
    },
    {
        "position": {
            "lat": "24.5802942",
            "lng": "121.0105733",
            "zoom": "11"
        },
        "postal": "353",
        "id": "97",
        "cwb_id": "1000511",
        "name": "南庄鄉"
    },
    {
        "position": {
            "lat": "24.5238661",
            "lng": "120.9302603",
            "zoom": "10"
        },
        "postal": "354",
        "id": "98",
        "cwb_id": "1000517",
        "name": "獅潭鄉"
    },
    {
        "position": {
            "lat": "24.6190374",
            "lng": "120.792458",
            "zoom": "11"
        },
        "postal": "356",
        "id": "99",
        "cwb_id": "1000506",
        "name": "後龍鎮"
    },
    {
        "position": {
            "lat": "24.485028",
            "lng": "120.7234992",
            "zoom": "11"
        },
        "postal": "357",
        "id": "100",
        "cwb_id": "1000503",
        "name": "通霄鎮"
    },
    {
        "position": {
            "lat": "24.4098262",
            "lng": "120.6775054",
            "zoom": "11"
        },
        "postal": "358",
        "id": "101",
        "cwb_id": "1000502",
        "name": "苑裡鎮"
    },
    {
        "position": {
            "lat": "24.5711502",
            "lng": "120.8154358",
            "zoom": "7"
        },
        "postal": "360",
        "id": "102",
        "cwb_id": "1000501",
        "name": "苗栗市"
    },
    {
        "position": {
            "lat": "24.6248068",
            "lng": "120.8613785",
            "zoom": "12"
        },
        "postal": "361",
        "id": "103",
        "cwb_id": "1000515",
        "name": "造橋鄉"
    },
    {
        "position": {
            "lat": "24.5769291",
            "lng": "120.8843434",
            "zoom": "11"
        },
        "postal": "362",
        "id": "104",
        "cwb_id": "1000512",
        "name": "頭屋鄉"
    },
    {
        "position": {
            "lat": "24.5019211",
            "lng": "120.8384093",
            "zoom": "11"
        },
        "postal": "363",
        "id": "105",
        "cwb_id": "1000509",
        "name": "公館鄉"
    },
    {
        "position": {
            "lat": "24.3980966",
            "lng": "120.8728615",
            "zoom": "11"
        },
        "postal": "364",
        "id": "106",
        "cwb_id": "1000508",
        "name": "大湖鄉"
    },
    {
        "position": {
            "lat": "24.3831955",
            "lng": "121.03351",
            "zoom": "9"
        },
        "postal": "365",
        "id": "107",
        "cwb_id": "1000518",
        "name": "泰安鄉"
    },
    {
        "position": {
            "lat": "24.4481942",
            "lng": "120.792458",
            "zoom": "11"
        },
        "postal": "366",
        "id": "108",
        "cwb_id": "1000510",
        "name": "銅鑼鄉"
    },
    {
        "position": {
            "lat": "24.3892633",
            "lng": "120.769476",
            "zoom": "10"
        },
        "postal": "367",
        "id": "109",
        "cwb_id": "1000513",
        "name": "三義鄉"
    },
    {
        "position": {
            "lat": "24.5387937",
            "lng": "120.769476",
            "zoom": "11"
        },
        "postal": "368",
        "id": "110",
        "cwb_id": "1000514",
        "name": "西湖鄉"
    },
    {
        "position": {
            "lat": "24.3259508",
            "lng": "120.8613785",
            "zoom": "10"
        },
        "postal": "369",
        "id": "111",
        "cwb_id": "1000507",
        "name": "卓蘭鎮"
    },
    {
        "position": {
            "lat": "24.1402601",
            "lng": "120.6818181",
            "zoom": "11"
        },
        "postal": "400",
        "id": "112",
        "cwb_id": "6600100",
        "name": "中區"
    },
    {
        "position": {
            "lat": "24.1427702",
            "lng": "120.6944233",
            "zoom": "13"
        },
        "postal": "401",
        "id": "113",
        "cwb_id": "6600200",
        "name": "東區"
    },
    {
        "position": {
            "lat": "24.1208445",
            "lng": "120.6624117",
            "zoom": "13"
        },
        "postal": "402",
        "id": "114",
        "cwb_id": "6600300",
        "name": "南區"
    },
    {
        "position": {
            "lat": "24.1430604",
            "lng": "120.6631289",
            "zoom": "13"
        },
        "postal": "403",
        "id": "115",
        "cwb_id": "6600400",
        "name": "西區"
    },
    {
        "position": {
            "lat": "24.1629451",
            "lng": "120.674583",
            "zoom": "13"
        },
        "postal": "404",
        "id": "116",
        "cwb_id": "6600500",
        "name": "北區"
    },
    {
        "position": {
            "lat": "24.1815237",
            "lng": "120.6861019",
            "zoom": "12"
        },
        "postal": "406",
        "id": "117",
        "cwb_id": "6600800",
        "name": "北屯區"
    },
    {
        "position": {
            "lat": "24.1769764",
            "lng": "120.6424333",
            "zoom": "11"
        },
        "postal": "407",
        "id": "118",
        "cwb_id": "6600600",
        "name": "西屯區"
    },
    {
        "position": {
            "lat": "24.1471183",
            "lng": "120.6084832",
            "zoom": "12"
        },
        "postal": "408",
        "id": "119",
        "cwb_id": "6600700",
        "name": "南屯區"
    },
    {
        "position": {
            "lat": "24.1240719",
            "lng": "120.7170701",
            "zoom": "11"
        },
        "postal": "411",
        "id": "120",
        "cwb_id": "6602700",
        "name": "太平區"
    },
    {
        "position": {
            "lat": "24.1046899",
            "lng": "120.6812114",
            "zoom": "12"
        },
        "postal": "412",
        "id": "121",
        "cwb_id": "6602800",
        "name": "大里區"
    },
    {
        "position": {
            "lat": "24.0442951",
            "lng": "120.734995",
            "zoom": "10"
        },
        "postal": "413",
        "id": "122",
        "cwb_id": "6602600",
        "name": "霧峰區"
    },
    {
        "position": {
            "lat": "24.107787",
            "lng": "120.6380936",
            "zoom": "11"
        },
        "postal": "414",
        "id": "123",
        "cwb_id": "6602300",
        "name": "烏日區"
    },
    {
        "position": {
            "lat": "24.2521156",
            "lng": "120.7223572",
            "zoom": "11"
        },
        "postal": "420",
        "id": "124",
        "cwb_id": "6600900",
        "name": "豐原區"
    },
    {
        "position": {
            "lat": "24.3088765",
            "lng": "120.7223705",
            "zoom": "11"
        },
        "postal": "421",
        "id": "125",
        "cwb_id": "6601500",
        "name": "后里區"
    },
    {
        "position": {
            "lat": "24.2742426",
            "lng": "120.7771553",
            "zoom": "11"
        },
        "postal": "422",
        "id": "126",
        "cwb_id": "6602000",
        "name": "石岡區"
    },
    {
        "position": {
            "lat": "24.2599898",
            "lng": "120.8272085",
            "zoom": "11"
        },
        "postal": "423",
        "id": "127",
        "cwb_id": "6601000",
        "name": "東勢區"
    },
    {
        "position": {
            "lat": "24.3207261",
            "lng": "121.3084088",
            "zoom": "9"
        },
        "postal": "424",
        "id": "128",
        "cwb_id": "6602900",
        "name": "和平區"
    },
    {
        "position": {
            "lat": "24.1867194",
            "lng": "120.8154358",
            "zoom": "10"
        },
        "postal": "426",
        "id": "129",
        "cwb_id": "6601900",
        "name": "新社區"
    },
    {
        "position": {
            "lat": "24.2163612",
            "lng": "120.7062535",
            "zoom": "12"
        },
        "postal": "427",
        "id": "130",
        "cwb_id": "6601700",
        "name": "潭子區"
    },
    {
        "position": {
            "lat": "24.2225023",
            "lng": "120.6545022",
            "zoom": "10"
        },
        "postal": "428",
        "id": "131",
        "cwb_id": "6601800",
        "name": "大雅區"
    },
    {
        "position": {
            "lat": "24.2466151",
            "lng": "120.6830982",
            "zoom": "12"
        },
        "postal": "429",
        "id": "132",
        "cwb_id": "6601600",
        "name": "神岡區"
    },
    {
        "position": {
            "lat": "24.1358732",
            "lng": "120.5624474",
            "zoom": "11"
        },
        "postal": "432",
        "id": "133",
        "cwb_id": "6602400",
        "name": "大肚區"
    },
    {
        "position": {
            "lat": "24.2377939",
            "lng": "120.5854674",
            "zoom": "11"
        },
        "postal": "433",
        "id": "134",
        "cwb_id": "6601300",
        "name": "沙鹿區"
    },
    {
        "position": {
            "lat": "24.2102428",
            "lng": "120.5163949",
            "zoom": "12"
        },
        "postal": "434",
        "id": "135",
        "cwb_id": "6602500",
        "name": "龍井區"
    },
    {
        "position": {
            "lat": "24.2479737",
            "lng": "120.5394232",
            "zoom": "11"
        },
        "postal": "435",
        "id": "136",
        "cwb_id": "6601400",
        "name": "梧棲區"
    },
    {
        "position": {
            "lat": "24.301983",
            "lng": "120.5854674",
            "zoom": "11"
        },
        "postal": "436",
        "id": "137",
        "cwb_id": "6601200",
        "name": "清水區"
    },
    {
        "position": {
            "lat": "24.3788233",
            "lng": "120.6487508",
            "zoom": "9"
        },
        "postal": "437",
        "id": "138",
        "cwb_id": "6601100",
        "name": "大甲區"
    },
    {
        "position": {
            "lat": "24.3317733",
            "lng": "120.6533224",
            "zoom": "12"
        },
        "postal": "438",
        "id": "139",
        "cwb_id": "6602100",
        "name": "外埔區"
    },
    {
        "position": {
            "lat": "24.3702355",
            "lng": "120.5912217",
            "zoom": "11"
        },
        "postal": "439",
        "id": "140",
        "cwb_id": "6602200",
        "name": "大安區"
    },
    {
        "position": {
            "lat": "24.0716583",
            "lng": "120.5624474",
            "zoom": "8"
        },
        "postal": "500",
        "id": "141",
        "cwb_id": "1000701",
        "name": "彰化市"
    },
    {
        "position": {
            "lat": "24.0095806",
            "lng": "120.6257423",
            "zoom": "11"
        },
        "postal": "502",
        "id": "142",
        "cwb_id": "1000709",
        "name": "芬園鄉"
    },
    {
        "position": {
            "lat": "24.0288453",
            "lng": "120.5624474",
            "zoom": "12"
        },
        "postal": "503",
        "id": "143",
        "cwb_id": "1000708",
        "name": "花壇鄉"
    },
    {
        "position": {
            "lat": "24.0348603",
            "lng": "120.5106372",
            "zoom": "11"
        },
        "postal": "504",
        "id": "144",
        "cwb_id": "1000707",
        "name": "秀水鄉"
    },
    {
        "position": {
            "lat": "24.0755127",
            "lng": "120.447285",
            "zoom": "10"
        },
        "postal": "505",
        "id": "145",
        "cwb_id": "1000702",
        "name": "鹿港鎮"
    },
    {
        "position": {
            "lat": "24.0377011",
            "lng": "120.4242401",
            "zoom": "12"
        },
        "postal": "506",
        "id": "146",
        "cwb_id": "1000706",
        "name": "福興鄉"
    },
    {
        "position": {
            "lat": "24.1331612",
            "lng": "120.4530456",
            "zoom": "12"
        },
        "postal": "507",
        "id": "147",
        "cwb_id": "1000704",
        "name": "線西鄉"
    },
    {
        "position": {
            "lat": "24.1246022",
            "lng": "120.5163949",
            "zoom": "12"
        },
        "postal": "508",
        "id": "148",
        "cwb_id": "1000703",
        "name": "和美鎮"
    },
    {
        "position": {
            "lat": "24.1724928",
            "lng": "120.4933624",
            "zoom": "10"
        },
        "postal": "509",
        "id": "149",
        "cwb_id": "1000705",
        "name": "伸港鄉"
    },
    {
        "position": {
            "lat": "23.959574",
            "lng": "120.5854674",
            "zoom": "10"
        },
        "postal": "510",
        "id": "150",
        "cwb_id": "1000710",
        "name": "員林鎮"
    },
    {
        "position": {
            "lat": "23.9117187",
            "lng": "120.6084832",
            "zoom": "12"
        },
        "postal": "511",
        "id": "151",
        "cwb_id": "1000717",
        "name": "社頭鄉"
    },
    {
        "position": {
            "lat": "23.9202279",
            "lng": "120.5451797",
            "zoom": "12"
        },
        "postal": "512",
        "id": "152",
        "cwb_id": "1000716",
        "name": "永靖鄉"
    },
    {
        "position": {
            "lat": "23.9482532",
            "lng": "120.5394232",
            "zoom": "12"
        },
        "postal": "513",
        "id": "153",
        "cwb_id": "1000715",
        "name": "埔心鄉"
    },
    {
        "position": {
            "lat": "23.9583265",
            "lng": "120.4933624",
            "zoom": "11"
        },
        "postal": "514",
        "id": "154",
        "cwb_id": "1000711",
        "name": "溪湖鎮"
    },
    {
        "position": {
            "lat": "23.9910777",
            "lng": "120.5394232",
            "zoom": "12"
        },
        "postal": "515",
        "id": "155",
        "cwb_id": "1000713",
        "name": "大村鄉"
    },
    {
        "position": {
            "lat": "23.9898141",
            "lng": "120.447285",
            "zoom": "11"
        },
        "postal": "516",
        "id": "156",
        "cwb_id": "1000714",
        "name": "埔鹽鄉"
    },
    {
        "position": {
            "lat": "23.8525401",
            "lng": "120.5854674",
            "zoom": "11"
        },
        "postal": "520",
        "id": "157",
        "cwb_id": "1000712",
        "name": "田中鎮"
    },
    {
        "position": {
            "lat": "23.869208",
            "lng": "120.5336665",
            "zoom": "12"
        },
        "postal": "521",
        "id": "158",
        "cwb_id": "1000719",
        "name": "北斗鎮"
    },
    {
        "position": {
            "lat": "23.9038461",
            "lng": "120.5221524",
            "zoom": "12"
        },
        "postal": "522",
        "id": "159",
        "cwb_id": "1000721",
        "name": "田尾鄉"
    },
    {
        "position": {
            "lat": "23.8776623",
            "lng": "120.4703258",
            "zoom": "10"
        },
        "postal": "523",
        "id": "160",
        "cwb_id": "1000722",
        "name": "埤頭鄉"
    },
    {
        "position": {
            "lat": "23.8247844",
            "lng": "120.5163949",
            "zoom": "11"
        },
        "postal": "524",
        "id": "161",
        "cwb_id": "1000726",
        "name": "溪州鄉"
    },
    {
        "position": {
            "lat": "23.8448257",
            "lng": "120.4242401",
            "zoom": "12"
        },
        "postal": "525",
        "id": "162",
        "cwb_id": "1000725",
        "name": "竹塘鄉"
    },
    {
        "position": {
            "lat": "23.9141358",
            "lng": "120.4011911",
            "zoom": "11"
        },
        "postal": "526",
        "id": "163",
        "cwb_id": "1000720",
        "name": "二林鎮"
    },
    {
        "position": {
            "lat": "23.8483614",
            "lng": "120.3089541",
            "zoom": "11"
        },
        "postal": "527",
        "id": "164",
        "cwb_id": "1000724",
        "name": "大城鄉"
    },
    {
        "position": {
            "lat": "23.9455949",
            "lng": "120.3550808",
            "zoom": "9"
        },
        "postal": "528",
        "id": "165",
        "cwb_id": "1000723",
        "name": "芳苑鄉"
    },
    {
        "position": {
            "lat": "23.8062757",
            "lng": "120.6257423",
            "zoom": "12"
        },
        "postal": "530",
        "id": "166",
        "cwb_id": "1000718",
        "name": "二水鄉"
    },
    {
        "position": {
            "lat": "23.9179637",
            "lng": "120.6775054",
            "zoom": "9"
        },
        "postal": "540",
        "id": "167",
        "cwb_id": "1000801",
        "name": "南投市"
    },
    {
        "position": {
            "lat": "23.9058666",
            "lng": "120.7809676",
            "zoom": "11"
        },
        "postal": "541",
        "id": "168",
        "cwb_id": "1000808",
        "name": "中寮鄉"
    },
    {
        "position": {
            "lat": "23.9933816",
            "lng": "120.7234992",
            "zoom": "11"
        },
        "postal": "542",
        "id": "169",
        "cwb_id": "1000803",
        "name": "草屯鎮"
    },
    {
        "position": {
            "lat": "24.0564429",
            "lng": "120.8728615",
            "zoom": "9"
        },
        "postal": "544",
        "id": "170",
        "cwb_id": "1000810",
        "name": "國姓鄉"
    },
    {
        "position": {
            "lat": "23.9932872",
            "lng": "120.9646866",
            "zoom": "10"
        },
        "postal": "545",
        "id": "171",
        "cwb_id": "1000802",
        "name": "埔里鎮"
    },
    {
        "position": {
            "lat": "24.0213745",
            "lng": "121.1252135",
            "zoom": "8"
        },
        "postal": "546",
        "id": "172",
        "cwb_id": "1000813",
        "name": "仁愛鄉"
    },
    {
        "position": {
            "lat": "23.8537843",
            "lng": "120.6775054",
            "zoom": "11"
        },
        "postal": "551",
        "id": "173",
        "cwb_id": "1000806",
        "name": "名間鄉"
    },
    {
        "position": {
            "lat": "23.8335746",
            "lng": "120.769476",
            "zoom": "10"
        },
        "postal": "552",
        "id": "174",
        "cwb_id": "1000805",
        "name": "集集鎮"
    },
    {
        "position": {
            "lat": "23.7919524",
            "lng": "120.8613785",
            "zoom": "9"
        },
        "postal": "553",
        "id": "175",
        "cwb_id": "1000811",
        "name": "水里鄉"
    },
    {
        "position": {
            "lat": "23.8753852",
            "lng": "120.9187827",
            "zoom": "10"
        },
        "postal": "555",
        "id": "176",
        "cwb_id": "1000809",
        "name": "魚池鄉"
    },
    {
        "position": {
            "lat": "23.6679756",
            "lng": "120.9876321",
            "zoom": "9"
        },
        "postal": "556",
        "id": "177",
        "cwb_id": "1000812",
        "name": "信義鄉"
    },
    {
        "position": {
            "lat": "23.712201",
            "lng": "120.6890055",
            "zoom": "10"
        },
        "postal": "557",
        "id": "178",
        "cwb_id": "1000804",
        "name": "竹山鎮"
    },
    {
        "position": {
            "lat": "23.7348372",
            "lng": "120.7809676",
            "zoom": "11"
        },
        "postal": "558",
        "id": "179",
        "cwb_id": "1000807",
        "name": "鹿谷鄉"
    },
    {
        "position": {
            "lat": "23.4803964",
            "lng": "120.4242401",
            "zoom": "9"
        },
        "postal": "600",
        "id": "180",
        "cwb_id": "1002002",
        "name": "西區"
    },
    {
        "position": {
            "lat": "23.4853348",
            "lng": "120.4760853",
            "zoom": "11"
        },
        "postal": "600",
        "id": "181",
        "cwb_id": "1002001",
        "name": "東區"
    },
    {
        "position": {
            "lat": "23.4407355",
            "lng": "120.6084832",
            "zoom": "11"
        },
        "postal": "602",
        "id": "182",
        "cwb_id": "1001016",
        "name": "番路鄉"
    },
    {
        "position": {
            "lat": "23.5410247",
            "lng": "120.6890055",
            "zoom": "10"
        },
        "postal": "603",
        "id": "183",
        "cwb_id": "1001015",
        "name": "梅山鄉"
    },
    {
        "position": {
            "lat": "23.5049724",
            "lng": "120.6084832",
            "zoom": "10"
        },
        "postal": "604",
        "id": "184",
        "cwb_id": "1001014",
        "name": "竹崎鄉"
    },
    {
        "position": {
            "lat": "23.4354677",
            "lng": "120.7809676",
            "zoom": "7"
        },
        "postal": "605",
        "id": "185",
        "cwb_id": "1001018",
        "name": "阿里山鄉"
    },
    {
        "position": {
            "lat": "23.3995944",
            "lng": "120.5509358",
            "zoom": "9"
        },
        "postal": "606",
        "id": "186",
        "cwb_id": "1001013",
        "name": "中埔鄉"
    },
    {
        "position": {
            "lat": "23.3040182",
            "lng": "120.5969758",
            "zoom": "10"
        },
        "postal": "607",
        "id": "187",
        "cwb_id": "1001017",
        "name": "大埔鄉"
    },
    {
        "position": {
            "lat": "23.4375146",
            "lng": "120.4242401",
            "zoom": "11"
        },
        "postal": "608",
        "id": "188",
        "cwb_id": "1001012",
        "name": "水上鄉"
    },
    {
        "position": {
            "lat": "23.419257",
            "lng": "120.3089541",
            "zoom": "11"
        },
        "postal": "611",
        "id": "189",
        "cwb_id": "1001011",
        "name": "鹿草鄉"
    },
    {
        "position": {
            "lat": "23.4787035",
            "lng": "120.3320195",
            "zoom": "11"
        },
        "postal": "612",
        "id": "190",
        "cwb_id": "1001001",
        "name": "太保市"
    },
    {
        "position": {
            "lat": "23.4464152",
            "lng": "120.2570421",
            "zoom": "11"
        },
        "postal": "613",
        "id": "191",
        "cwb_id": "1001002",
        "name": "朴子市"
    },
    {
        "position": {
            "lat": "23.4701923",
            "lng": "120.1704766",
            "zoom": "11"
        },
        "postal": "614",
        "id": "192",
        "cwb_id": "1001009",
        "name": "東石鄉"
    },
    {
        "position": {
            "lat": "23.5149489",
            "lng": "120.2628111",
            "zoom": "11"
        },
        "postal": "615",
        "id": "193",
        "cwb_id": "1001008",
        "name": "六腳鄉"
    },
    {
        "position": {
            "lat": "23.538123",
            "lng": "120.3550808",
            "zoom": "11"
        },
        "postal": "616",
        "id": "194",
        "cwb_id": "1001007",
        "name": "新港鄉"
    },
    {
        "position": {
            "lat": "23.5479954",
            "lng": "120.4588059",
            "zoom": "11"
        },
        "postal": "621",
        "id": "195",
        "cwb_id": "1001005",
        "name": "民雄鄉"
    },
    {
        "position": {
            "lat": "23.5990934",
            "lng": "120.4703258",
            "zoom": "11"
        },
        "postal": "622",
        "id": "196",
        "cwb_id": "1001004",
        "name": "大林鎮"
    },
    {
        "position": {
            "lat": "23.5925564",
            "lng": "120.4011911",
            "zoom": "11"
        },
        "postal": "623",
        "id": "197",
        "cwb_id": "1001006",
        "name": "溪口鄉"
    },
    {
        "position": {
            "lat": "23.3530108",
            "lng": "120.2166519",
            "zoom": "11"
        },
        "postal": "624",
        "id": "198",
        "cwb_id": "1001010",
        "name": "義竹鄉"
    },
    {
        "position": {
            "lat": "23.3627901",
            "lng": "120.1704766",
            "zoom": "10"
        },
        "postal": "625",
        "id": "199",
        "cwb_id": "1001003",
        "name": "布袋鎮"
    },
    {
        "position": {
            "lat": "23.658401",
            "lng": "120.4933624",
            "zoom": "11"
        },
        "postal": "630",
        "id": "200",
        "cwb_id": "1000902",
        "name": "斗南鎮"
    },
    {
        "position": {
            "lat": "23.6519084",
            "lng": "120.4242401",
            "zoom": "11"
        },
        "postal": "631",
        "id": "201",
        "cwb_id": "1000908",
        "name": "大埤鄉"
    },
    {
        "position": {
            "lat": "23.7162184",
            "lng": "120.4242401",
            "zoom": "10"
        },
        "postal": "632",
        "id": "202",
        "cwb_id": "1000903",
        "name": "虎尾鎮"
    },
    {
        "position": {
            "lat": "23.6882639",
            "lng": "120.3550808",
            "zoom": "11"
        },
        "postal": "633",
        "id": "203",
        "cwb_id": "1000905",
        "name": "土庫鎮"
    },
    {
        "position": {
            "lat": "23.7196488",
            "lng": "120.3089541",
            "zoom": "11"
        },
        "postal": "634",
        "id": "204",
        "cwb_id": "1000915",
        "name": "褒忠鄉"
    },
    {
        "position": {
            "lat": "23.693257",
            "lng": "120.2570421",
            "zoom": "10"
        },
        "postal": "635",
        "id": "205",
        "cwb_id": "1000914",
        "name": "東勢鄉"
    },
    {
        "position": {
            "lat": "23.7229714",
            "lng": "120.1935663",
            "zoom": "11"
        },
        "postal": "636",
        "id": "206",
        "cwb_id": "1000916",
        "name": "台西鄉"
    },
    {
        "position": {
            "lat": "23.7790296",
            "lng": "120.3320195",
            "zoom": "10"
        },
        "postal": "637",
        "id": "207",
        "cwb_id": "1000912",
        "name": "崙背鄉"
    },
    {
        "position": {
            "lat": "23.7774603",
            "lng": "120.2397336",
            "zoom": "10"
        },
        "postal": "638",
        "id": "208",
        "cwb_id": "1000913",
        "name": "麥寮鄉"
    },
    {
        "position": {
            "lat": "23.7076774",
            "lng": "120.5624474",
            "zoom": "9"
        },
        "postal": "640",
        "id": "209",
        "cwb_id": "1000901",
        "name": "斗六市"
    },
    {
        "position": {
            "lat": "23.7618842",
            "lng": "120.6084832",
            "zoom": "11"
        },
        "postal": "643",
        "id": "210",
        "cwb_id": "1000910",
        "name": "林內鄉"
    },
    {
        "position": {
            "lat": "23.6466411",
            "lng": "120.5969758",
            "zoom": "11"
        },
        "postal": "646",
        "id": "211",
        "cwb_id": "1000907",
        "name": "古坑鄉"
    },
    {
        "position": {
            "lat": "23.7769338",
            "lng": "120.5394232",
            "zoom": "11"
        },
        "postal": "647",
        "id": "212",
        "cwb_id": "1000909",
        "name": "莿桐鄉"
    },
    {
        "position": {
            "lat": "23.7755286",
            "lng": "120.447285",
            "zoom": "11"
        },
        "postal": "648",
        "id": "213",
        "cwb_id": "1000904",
        "name": "西螺鎮"
    },
    {
        "position": {
            "lat": "23.7855171",
            "lng": "120.4011911",
            "zoom": "11"
        },
        "postal": "649",
        "id": "214",
        "cwb_id": "1000911",
        "name": "二崙鄉"
    },
    {
        "position": {
            "lat": "23.5958633",
            "lng": "120.2858846",
            "zoom": "7"
        },
        "postal": "651",
        "id": "215",
        "cwb_id": "1000906",
        "name": "北港鎮"
    },
    {
        "position": {
            "lat": "23.5628088",
            "lng": "120.2397336",
            "zoom": "11"
        },
        "postal": "652",
        "id": "216",
        "cwb_id": "1000920",
        "name": "水林鄉"
    },
    {
        "position": {
            "lat": "23.5775853",
            "lng": "120.1704766",
            "zoom": "10"
        },
        "postal": "653",
        "id": "217",
        "cwb_id": "1000919",
        "name": "口湖鄉"
    },
    {
        "position": {
            "lat": "23.6370834",
            "lng": "120.1935663",
            "zoom": "11"
        },
        "postal": "654",
        "id": "218",
        "cwb_id": "1000918",
        "name": "四湖鄉"
    },
    {
        "position": {
            "lat": "23.6288771",
            "lng": "120.3320195",
            "zoom": "11"
        },
        "postal": "655",
        "id": "219",
        "cwb_id": "1000917",
        "name": "元長鄉"
    },
    {
        "position": {
            "lat": "22.9948212",
            "lng": "120.1964522",
            "zoom": "13"
        },
        "postal": "700",
        "id": "220",
        "cwb_id": "6703700",
        "name": "中西區"
    },
    {
        "position": {
            "lat": "22.98133",
            "lng": "120.2224227",
            "zoom": "12"
        },
        "postal": "701",
        "id": "221",
        "cwb_id": "6703200",
        "name": "東區"
    },
    {
        "position": {
            "lat": "22.9563522",
            "lng": "120.1877943",
            "zoom": "11"
        },
        "postal": "702",
        "id": "222",
        "cwb_id": "6703300",
        "name": "南區"
    },
    {
        "position": {
            "lat": "23.008515",
            "lng": "120.2079953",
            "zoom": "12"
        },
        "postal": "704",
        "id": "223",
        "cwb_id": "6703400",
        "name": "北區"
    },
    {
        "position": {
            "lat": "22.9934043",
            "lng": "120.1647036",
            "zoom": "9"
        },
        "postal": "708",
        "id": "224",
        "cwb_id": "6703600",
        "name": "安平區"
    },
    {
        "position": {
            "lat": "23.0585336",
            "lng": "120.1358346",
            "zoom": "11"
        },
        "postal": "709",
        "id": "225",
        "cwb_id": "6703500",
        "name": "安南區"
    },
    {
        "position": {
            "lat": "23.0211779",
            "lng": "120.2628111",
            "zoom": "10"
        },
        "postal": "710",
        "id": "226",
        "cwb_id": "6703100",
        "name": "永康區"
    },
    {
        "position": {
            "lat": "22.9519268",
            "lng": "120.2858846",
            "zoom": "11"
        },
        "postal": "711",
        "id": "227",
        "cwb_id": "6702800",
        "name": "歸仁區"
    },
    {
        "position": {
            "lat": "23.0280873",
            "lng": "120.3320195",
            "zoom": "11"
        },
        "postal": "712",
        "id": "228",
        "cwb_id": "6701800",
        "name": "新化區"
    },
    {
        "position": {
            "lat": "23.0300785",
            "lng": "120.4242401",
            "zoom": "9"
        },
        "postal": "713",
        "id": "229",
        "cwb_id": "6702600",
        "name": "左鎮區"
    },
    {
        "position": {
            "lat": "23.1060822",
            "lng": "120.4703258",
            "zoom": "11"
        },
        "postal": "714",
        "id": "230",
        "cwb_id": "6702300",
        "name": "玉井區"
    },
    {
        "position": {
            "lat": "23.1820152",
            "lng": "120.5163949",
            "zoom": "10"
        },
        "postal": "715",
        "id": "231",
        "cwb_id": "6702400",
        "name": "楠西區"
    },
    {
        "position": {
            "lat": "23.1079133",
            "lng": "120.5624474",
            "zoom": "12"
        },
        "postal": "716",
        "id": "232",
        "cwb_id": "6702500",
        "name": "南化區"
    },
    {
        "position": {
            "lat": "22.9401228",
            "lng": "120.2397336",
            "zoom": "12"
        },
        "postal": "717",
        "id": "233",
        "cwb_id": "6702700",
        "name": "仁德區"
    },
    {
        "position": {
            "lat": "22.9637053",
            "lng": "120.3320195",
            "zoom": "12"
        },
        "postal": "718",
        "id": "234",
        "cwb_id": "6702900",
        "name": "關廟區"
    },
    {
        "position": {
            "lat": "22.9540045",
            "lng": "120.378138",
            "zoom": "11"
        },
        "postal": "719",
        "id": "235",
        "cwb_id": "6703000",
        "name": "龍崎區"
    },
    {
        "position": {
            "lat": "23.1948768",
            "lng": "120.3550808",
            "zoom": "11"
        },
        "postal": "720",
        "id": "236",
        "cwb_id": "6701000",
        "name": "官田區"
    },
    {
        "position": {
            "lat": "23.1763401",
            "lng": "120.2397336",
            "zoom": "11"
        },
        "postal": "721",
        "id": "237",
        "cwb_id": "6700700",
        "name": "麻豆區"
    },
    {
        "position": {
            "lat": "23.1694465",
            "lng": "120.1704766",
            "zoom": "11"
        },
        "postal": "722",
        "id": "238",
        "cwb_id": "6701200",
        "name": "佳里區"
    },
    {
        "position": {
            "lat": "23.1257853",
            "lng": "120.1993381",
            "zoom": "12"
        },
        "postal": "723",
        "id": "239",
        "cwb_id": "6701400",
        "name": "西港區"
    },
    {
        "position": {
            "lat": "23.1195166",
            "lng": "120.1011836",
            "zoom": "10"
        },
        "postal": "724",
        "id": "240",
        "cwb_id": "6701500",
        "name": "七股區"
    },
    {
        "position": {
            "lat": "23.216876",
            "lng": "120.137211",
            "zoom": "11"
        },
        "postal": "725",
        "id": "241",
        "cwb_id": "6701600",
        "name": "將軍區"
    },
    {
        "position": {
            "lat": "23.2553798",
            "lng": "120.1704766",
            "zoom": "12"
        },
        "postal": "726",
        "id": "242",
        "cwb_id": "6701300",
        "name": "學甲區"
    },
    {
        "position": {
            "lat": "23.2866026",
            "lng": "120.1242853",
            "zoom": "11"
        },
        "postal": "727",
        "id": "243",
        "cwb_id": "6701700",
        "name": "北門區"
    },
    {
        "position": {
            "lat": "23.3119567",
            "lng": "120.3089541",
            "zoom": "11"
        },
        "postal": "730",
        "id": "244",
        "cwb_id": "6700100",
        "name": "新營區"
    },
    {
        "position": {
            "lat": "23.3665101",
            "lng": "120.3550808",
            "zoom": "11"
        },
        "postal": "731",
        "id": "245",
        "cwb_id": "6700500",
        "name": "後壁區"
    },
    {
        "position": {
            "lat": "23.3336369",
            "lng": "120.4588059",
            "zoom": "10"
        },
        "postal": "732",
        "id": "246",
        "cwb_id": "6700300",
        "name": "白河區"
    },
    {
        "position": {
            "lat": "23.2825014",
            "lng": "120.447285",
            "zoom": "11"
        },
        "postal": "733",
        "id": "247",
        "cwb_id": "6700600",
        "name": "東山區"
    },
    {
        "position": {
            "lat": "23.2426813",
            "lng": "120.3320195",
            "zoom": "12"
        },
        "postal": "734",
        "id": "248",
        "cwb_id": "6700900",
        "name": "六甲區"
    },
    {
        "position": {
            "lat": "23.2292915",
            "lng": "120.2685799",
            "zoom": "12"
        },
        "postal": "735",
        "id": "249",
        "cwb_id": "6700800",
        "name": "下營區"
    },
    {
        "position": {
            "lat": "23.2806957",
            "lng": "120.3550808",
            "zoom": "11"
        },
        "postal": "736",
        "id": "250",
        "cwb_id": "6700400",
        "name": "柳營區"
    },
    {
        "position": {
            "lat": "23.2622306",
            "lng": "120.2397336",
            "zoom": "9"
        },
        "postal": "737",
        "id": "251",
        "cwb_id": "6700200",
        "name": "鹽水區"
    },
    {
        "position": {
            "lat": "23.1402613",
            "lng": "120.3089541",
            "zoom": "10"
        },
        "postal": "741",
        "id": "252",
        "cwb_id": "6701900",
        "name": "善化區"
    },
    {
        "position": {
            "lat": "23.1421962",
            "lng": "120.4011911",
            "zoom": "11"
        },
        "postal": "742",
        "id": "253",
        "cwb_id": "6701100",
        "name": "大內區"
    },
    {
        "position": {
            "lat": "23.0893067",
            "lng": "120.3723741",
            "zoom": "11"
        },
        "postal": "743",
        "id": "254",
        "cwb_id": "6702200",
        "name": "山上區"
    },
    {
        "position": {
            "lat": "23.0807324",
            "lng": "120.2858846",
            "zoom": "12"
        },
        "postal": "744",
        "id": "255",
        "cwb_id": "6702000",
        "name": "新市區"
    },
    {
        "position": {
            "lat": "23.095298",
            "lng": "120.2166519",
            "zoom": "11"
        },
        "postal": "745",
        "id": "256",
        "cwb_id": "6702100",
        "name": "安定區"
    },
    {
        "position": {
            "lat": "22.6283893",
            "lng": "120.3060706",
            "zoom": "13"
        },
        "postal": "800",
        "id": "257",
        "cwb_id": "6400600",
        "name": "新興區"
    },
    {
        "position": {
            "lat": "22.6254162",
            "lng": "120.2945362",
            "zoom": "13"
        },
        "postal": "801",
        "id": "258",
        "cwb_id": "6400700",
        "name": "前金區"
    },
    {
        "position": {
            "lat": "22.6268814",
            "lng": "120.3262535",
            "zoom": "13"
        },
        "postal": "802",
        "id": "259",
        "cwb_id": "6400800",
        "name": "苓雅區"
    },
    {
        "position": {
            "lat": "22.6224414",
            "lng": "120.2830007",
            "zoom": "12"
        },
        "postal": "803",
        "id": "260",
        "cwb_id": "6400100",
        "name": "鹽埕區"
    },
    {
        "position": {
            "lat": "22.6495866",
            "lng": "120.2685799",
            "zoom": "12"
        },
        "postal": "804",
        "id": "261",
        "cwb_id": "6400200",
        "name": "鼓山區"
    },
    {
        "position": {
            "lat": "22.561674",
            "lng": "120.306998",
            "zoom": "7"
        },
        "postal": "805",
        "id": "262",
        "cwb_id": "6401000",
        "name": "旗津區"
    },
    {
        "position": {
            "lat": "22.5970794",
            "lng": "120.3147208",
            "zoom": "12"
        },
        "postal": "806",
        "id": "263",
        "cwb_id": "6400900",
        "name": "前鎮區"
    },
    {
        "position": {
            "lat": "22.6483444",
            "lng": "120.3262535",
            "zoom": "11"
        },
        "postal": "807",
        "id": "264",
        "cwb_id": "6400500",
        "name": "三民區"
    },
    {
        "position": {
            "lat": "22.7175372",
            "lng": "120.3031871",
            "zoom": "12"
        },
        "postal": "811",
        "id": "265",
        "cwb_id": "6400400",
        "name": "楠梓區"
    },
    {
        "position": {
            "lat": "22.5553185",
            "lng": "120.3608455",
            "zoom": "11"
        },
        "postal": "812",
        "id": "266",
        "cwb_id": "6401100",
        "name": "小港區"
    },
    {
        "position": {
            "lat": "22.6877358",
            "lng": "120.2916524",
            "zoom": "10"
        },
        "postal": "813",
        "id": "267",
        "cwb_id": "6400300",
        "name": "左營區"
    },
    {
        "position": {
            "lat": "22.6947932",
            "lng": "120.3608455",
            "zoom": "11"
        },
        "postal": "814",
        "id": "268",
        "cwb_id": "6401700",
        "name": "仁武區"
    },
    {
        "position": {
            "lat": "22.7377083",
            "lng": "120.3608455",
            "zoom": "12"
        },
        "postal": "815",
        "id": "269",
        "cwb_id": "6401600",
        "name": "大社區"
    },
    {
        "position": {
            "lat": "22.8016472",
            "lng": "120.2858846",
            "zoom": "12"
        },
        "postal": "820",
        "id": "270",
        "cwb_id": "6401900",
        "name": "岡山區"
    },
    {
        "position": {
            "lat": "22.8494042",
            "lng": "120.2628111",
            "zoom": "10"
        },
        "postal": "821",
        "id": "271",
        "cwb_id": "6402400",
        "name": "路竹區"
    },
    {
        "position": {
            "lat": "22.8778606",
            "lng": "120.3320195",
            "zoom": "11"
        },
        "postal": "822",
        "id": "272",
        "cwb_id": "6402300",
        "name": "阿蓮區"
    },
    {
        "position": {
            "lat": "22.8633474",
            "lng": "120.4011911",
            "zoom": "11"
        },
        "postal": "823",
        "id": "273",
        "cwb_id": "6402200",
        "name": "田寮區"
    },
    {
        "position": {
            "lat": "22.7823697",
            "lng": "120.378138",
            "zoom": "11"
        },
        "postal": "824",
        "id": "274",
        "cwb_id": "6402100",
        "name": "燕巢區"
    },
    {
        "position": {
            "lat": "22.7539012",
            "lng": "120.3089541",
            "zoom": "12"
        },
        "postal": "825",
        "id": "275",
        "cwb_id": "6402000",
        "name": "橋頭區"
    },
    {
        "position": {
            "lat": "22.7486104",
            "lng": "120.2570421",
            "zoom": "11"
        },
        "postal": "826",
        "id": "276",
        "cwb_id": "6402900",
        "name": "梓官區"
    },
    {
        "position": {
            "lat": "22.7832231",
            "lng": "120.2455033",
            "zoom": "13"
        },
        "postal": "827",
        "id": "277",
        "cwb_id": "6402800",
        "name": "彌陀區"
    },
    {
        "position": {
            "lat": "22.8112691",
            "lng": "120.2397336",
            "zoom": "12"
        },
        "postal": "828",
        "id": "278",
        "cwb_id": "6402700",
        "name": "永安區"
    },
    {
        "position": {
            "lat": "22.8954184",
            "lng": "120.2224227",
            "zoom": "12"
        },
        "postal": "829",
        "id": "279",
        "cwb_id": "6402500",
        "name": "湖內區"
    },
    {
        "position": {
            "lat": "22.6113591",
            "lng": "120.3493158",
            "zoom": "11"
        },
        "postal": "830",
        "id": "280",
        "cwb_id": "6401200",
        "name": "鳳山區"
    },
    {
        "position": {
            "lat": "22.584481",
            "lng": "120.4011911",
            "zoom": "12"
        },
        "postal": "831",
        "id": "281",
        "cwb_id": "6401400",
        "name": "大寮區"
    },
    {
        "position": {
            "lat": "22.4986756",
            "lng": "120.4011911",
            "zoom": "12"
        },
        "postal": "832",
        "id": "282",
        "cwb_id": "6401300",
        "name": "林園區"
    },
    {
        "position": {
            "lat": "22.6602052",
            "lng": "120.3723741",
            "zoom": "11"
        },
        "postal": "833",
        "id": "283",
        "cwb_id": "6401800",
        "name": "鳥松區"
    },
    {
        "position": {
            "lat": "22.708371",
            "lng": "120.4242401",
            "zoom": "11"
        },
        "postal": "840",
        "id": "284",
        "cwb_id": "6401500",
        "name": "大樹區"
    },
    {
        "position": {
            "lat": "22.8702492",
            "lng": "120.4703258",
            "zoom": "10"
        },
        "postal": "842",
        "id": "285",
        "cwb_id": "6403000",
        "name": "旗山區"
    },
    {
        "position": {
            "lat": "22.885385",
            "lng": "120.5509358",
            "zoom": "10"
        },
        "postal": "843",
        "id": "286",
        "cwb_id": "6403100",
        "name": "美濃區"
    },
    {
        "position": {
            "lat": "23.0026195",
            "lng": "120.6545022",
            "zoom": "9"
        },
        "postal": "844",
        "id": "287",
        "cwb_id": "6403200",
        "name": "六龜區"
    },
    {
        "position": {
            "lat": "22.9560087",
            "lng": "120.4703258",
            "zoom": "11"
        },
        "postal": "845",
        "id": "288",
        "cwb_id": "6403500",
        "name": "內門區"
    },
    {
        "position": {
            "lat": "23.0007902",
            "lng": "120.5624474",
            "zoom": "11"
        },
        "postal": "846",
        "id": "289",
        "cwb_id": "6403400",
        "name": "杉林區"
    },
    {
        "position": {
            "lat": "23.114592",
            "lng": "120.6314948",
            "zoom": "10"
        },
        "postal": "847",
        "id": "290",
        "cwb_id": "6403300",
        "name": "甲仙區"
    },
    {
        "position": {
            "lat": "23.2280755",
            "lng": "120.8498944",
            "zoom": "10"
        },
        "postal": "848",
        "id": "291",
        "cwb_id": "6403700",
        "name": "桃源區"
    },
    {
        "position": {
            "lat": "23.2742978",
            "lng": "120.734995",
            "zoom": "10"
        },
        "postal": "849",
        "id": "292",
        "cwb_id": "6403800",
        "name": "那瑪夏區"
    },
    {
        "position": {
            "lat": "22.9319405",
            "lng": "120.734995",
            "zoom": "10"
        },
        "postal": "851",
        "id": "293",
        "cwb_id": "6403600",
        "name": "茂林區"
    },
    {
        "position": {
            "lat": "22.8763476",
            "lng": "120.2108809",
            "zoom": "11"
        },
        "postal": "852",
        "id": "294",
        "cwb_id": "6402600",
        "name": "茄萣區"
    },
    {
        "position": {
            "lat": "23.5661218",
            "lng": "119.5861581",
            "zoom": "1"
        },
        "postal": "880",
        "id": "295",
        "cwb_id": "1001601",
        "name": "馬公市"
    },
    {
        "position": {
            "lat": "23.6054584",
            "lng": "119.5136711",
            "zoom": "10"
        },
        "postal": "881",
        "id": "296",
        "cwb_id": "1001604",
        "name": "西嶼鄉"
    },
    {
        "position": {
            "lat": "23.3596967",
            "lng": "119.5020698",
            "zoom": "10"
        },
        "postal": "882",
        "id": "297",
        "cwb_id": "1001605",
        "name": "望安鄉"
    },
    {
        "position": {
            "lat": "23.208056",
            "lng": "119.428611",
            "zoom": "8"
        },
        "postal": "883",
        "id": "298",
        "cwb_id": "1001606",
        "name": "七美鄉"
    },
    {
        "position": {
            "lat": "23.6640444",
            "lng": "119.5948541",
            "zoom": "10"
        },
        "postal": "884",
        "id": "299",
        "cwb_id": "1001603",
        "name": "白沙鄉"
    },
    {
        "position": {
            "lat": "23.5773682",
            "lng": "119.6615055",
            "zoom": "10"
        },
        "postal": "885",
        "id": "300",
        "cwb_id": "1001602",
        "name": "湖西鄉"
    },
    {
        "position": {
            "lat": "24.4811092",
            "lng": "118.4279933",
            "zoom": "8"
        },
        "postal": "890",
        "id": "301",
        "cwb_id": "0902002",
        "name": "金沙鎮"
    },
    {
        "position": {
            "lat": "24.4376913",
            "lng": "118.4279933",
            "zoom": "10"
        },
        "postal": "891",
        "id": "302",
        "cwb_id": "0902003",
        "name": "金湖鎮"
    },
    {
        "position": {
            "lat": "24.4567205",
            "lng": "118.3345061",
            "zoom": "10"
        },
        "postal": "892",
        "id": "303",
        "cwb_id": "0902004",
        "name": "金寧鄉"
    },
    {
        "position": {
            "lat": "24.4113998",
            "lng": "118.3169714",
            "zoom": "10"
        },
        "postal": "893",
        "id": "304",
        "cwb_id": "0902001",
        "name": "金城鎮"
    },
    {
        "position": {
            "lat": "24.4279737",
            "lng": "118.2351192",
            "zoom": "1"
        },
        "postal": "894",
        "id": "305",
        "cwb_id": "0902005",
        "name": "烈嶼鄉"
    },
    {
        "position": {
            "lat": "24.9911547",
            "lng": "119.4542045",
            "zoom": "7"
        },
        "postal": "896",
        "id": "306",
        "cwb_id": "0902006",
        "name": "烏坵鄉"
    },
    {
        "position": {
            "lat": "22.6558442",
            "lng": "120.4703258",
            "zoom": "11"
        },
        "postal": "900",
        "id": "307",
        "cwb_id": "1001301",
        "name": "屏東市"
    },
    {
        "position": {
            "lat": "22.8133088",
            "lng": "120.6890055",
            "zoom": "9"
        },
        "postal": "901",
        "id": "308",
        "cwb_id": "1001326",
        "name": "三地門鄉"
    },
    {
        "position": {
            "lat": "22.7509887",
            "lng": "120.7809676",
            "zoom": "10"
        },
        "postal": "902",
        "id": "309",
        "cwb_id": "1001327",
        "name": "霧台鄉"
    },
    {
        "position": {
            "lat": "22.6765932",
            "lng": "120.6775054",
            "zoom": "10"
        },
        "postal": "903",
        "id": "310",
        "cwb_id": "1001328",
        "name": "瑪家鄉"
    },
    {
        "position": {
            "lat": "22.7416068",
            "lng": "120.4703258",
            "zoom": "10"
        },
        "postal": "904",
        "id": "311",
        "cwb_id": "1001308",
        "name": "九如鄉"
    },
    {
        "position": {
            "lat": "22.7962363",
            "lng": "120.5163949",
            "zoom": "11"
        },
        "postal": "905",
        "id": "312",
        "cwb_id": "1001309",
        "name": "里港鄉"
    },
    {
        "position": {
            "lat": "22.8196569",
            "lng": "120.6084832",
            "zoom": "11"
        },
        "postal": "906",
        "id": "313",
        "cwb_id": "1001311",
        "name": "高樹鄉"
    },
    {
        "position": {
            "lat": "22.7436807",
            "lng": "120.5624474",
            "zoom": "11"
        },
        "postal": "907",
        "id": "314",
        "cwb_id": "1001310",
        "name": "鹽埔鄉"
    },
    {
        "position": {
            "lat": "22.700828",
            "lng": "120.5624474",
            "zoom": "11"
        },
        "postal": "908",
        "id": "315",
        "cwb_id": "1001306",
        "name": "長治鄉"
    },
    {
        "position": {
            "lat": "22.6586565",
            "lng": "120.5336665",
            "zoom": "12"
        },
        "postal": "909",
        "id": "316",
        "cwb_id": "1001307",
        "name": "麟洛鄉"
    },
    {
        "position": {
            "lat": "22.5943638",
            "lng": "120.5336665",
            "zoom": "12"
        },
        "postal": "911",
        "id": "317",
        "cwb_id": "1001314",
        "name": "竹田鄉"
    },
    {
        "position": {
            "lat": "22.6531409",
            "lng": "120.5854674",
            "zoom": "11"
        },
        "postal": "912",
        "id": "318",
        "cwb_id": "1001313",
        "name": "內埔鄉"
    },
    {
        "position": {
            "lat": "22.591522",
            "lng": "120.4703258",
            "zoom": "10"
        },
        "postal": "913",
        "id": "319",
        "cwb_id": "1001305",
        "name": "萬丹鄉"
    },
    {
        "position": {
            "lat": "22.5294168",
            "lng": "120.5624474",
            "zoom": "9"
        },
        "postal": "920",
        "id": "320",
        "cwb_id": "1001302",
        "name": "潮州鎮"
    },
    {
        "position": {
            "lat": "22.5992424",
            "lng": "120.6890055",
            "zoom": "11"
        },
        "postal": "921",
        "id": "321",
        "cwb_id": "1001329",
        "name": "泰武鄉"
    },
    {
        "position": {
            "lat": "22.5136159",
            "lng": "120.6890055",
            "zoom": "10"
        },
        "postal": "922",
        "id": "322",
        "cwb_id": "1001330",
        "name": "來義鄉"
    },
    {
        "position": {
            "lat": "22.584046",
            "lng": "120.6084832",
            "zoom": "11"
        },
        "postal": "923",
        "id": "323",
        "cwb_id": "1001312",
        "name": "萬巒鄉"
    },
    {
        "position": {
            "lat": "22.5158427",
            "lng": "120.4991209",
            "zoom": "12"
        },
        "postal": "924",
        "id": "324",
        "cwb_id": "1001318",
        "name": "崁頂鄉"
    },
    {
        "position": {
            "lat": "22.4817586",
            "lng": "120.5854674",
            "zoom": "11"
        },
        "postal": "925",
        "id": "325",
        "cwb_id": "1001315",
        "name": "新埤鄉"
    },
    {
        "position": {
            "lat": "22.4747339",
            "lng": "120.5163949",
            "zoom": "12"
        },
        "postal": "926",
        "id": "326",
        "cwb_id": "1001320",
        "name": "南州鄉"
    },
    {
        "position": {
            "lat": "22.4384228",
            "lng": "120.5106372",
            "zoom": "12"
        },
        "postal": "927",
        "id": "327",
        "cwb_id": "1001319",
        "name": "林邊鄉"
    },
    {
        "position": {
            "lat": "22.4628783",
            "lng": "120.4703258",
            "zoom": "10"
        },
        "postal": "928",
        "id": "328",
        "cwb_id": "1001303",
        "name": "東港鎮"
    },
    {
        "position": {
            "lat": "22.341646",
            "lng": "120.369492",
            "zoom": "9"
        },
        "postal": "929",
        "id": "329",
        "cwb_id": "1001322",
        "name": "琉球鄉"
    },
    {
        "position": {
            "lat": "22.427078",
            "lng": "120.5394232",
            "zoom": "11"
        },
        "postal": "931",
        "id": "330",
        "cwb_id": "1001321",
        "name": "佳冬鄉"
    },
    {
        "position": {
            "lat": "22.5105513",
            "lng": "120.447285",
            "zoom": "11"
        },
        "postal": "932",
        "id": "331",
        "cwb_id": "1001317",
        "name": "新園鄉"
    },
    {
        "position": {
            "lat": "22.3960688",
            "lng": "120.5854674",
            "zoom": "10"
        },
        "postal": "940",
        "id": "332",
        "cwb_id": "1001316",
        "name": "枋寮鄉"
    },
    {
        "position": {
            "lat": "22.2606439",
            "lng": "120.6573779",
            "zoom": "11"
        },
        "postal": "941",
        "id": "333",
        "cwb_id": "1001325",
        "name": "枋山鄉"
    },
    {
        "position": {
            "lat": "22.3851778",
            "lng": "120.6890055",
            "zoom": "11"
        },
        "postal": "942",
        "id": "334",
        "cwb_id": "1001331",
        "name": "春日鄉"
    },
    {
        "position": {
            "lat": "22.2471686",
            "lng": "120.734995",
            "zoom": "10"
        },
        "postal": "943",
        "id": "335",
        "cwb_id": "1001332",
        "name": "獅子鄉"
    },
    {
        "position": {
            "lat": "22.0843074",
            "lng": "120.7464897",
            "zoom": "10"
        },
        "postal": "944",
        "id": "336",
        "cwb_id": "1001323",
        "name": "車城鄉"
    },
    {
        "position": {
            "lat": "22.1520217",
            "lng": "120.7809676",
            "zoom": "11"
        },
        "postal": "945",
        "id": "337",
        "cwb_id": "1001333",
        "name": "牡丹鄉"
    },
    {
        "position": {
            "lat": "21.9773373",
            "lng": "120.7464897",
            "zoom": "1"
        },
        "postal": "946",
        "id": "338",
        "cwb_id": "1001304",
        "name": "恆春鎮"
    },
    {
        "position": {
            "lat": "22.04385",
            "lng": "120.8384093",
            "zoom": "11"
        },
        "postal": "947",
        "id": "339",
        "cwb_id": "1001324",
        "name": "滿州鄉"
    },
    {
        "position": {
            "lat": "22.7546009",
            "lng": "121.1137544",
            "zoom": "10"
        },
        "postal": "950",
        "id": "340",
        "cwb_id": "1001401",
        "name": "台東市"
    },
    {
        "position": {
            "lat": "22.6581103",
            "lng": "121.4856066",
            "zoom": "7"
        },
        "postal": "951",
        "id": "341",
        "cwb_id": "1001411",
        "name": "綠島鄉"
    },
    {
        "position": {
            "lat": "22.0435616",
            "lng": "121.548418",
            "zoom": "8"
        },
        "postal": "952",
        "id": "342",
        "cwb_id": "1001416",
        "name": "蘭嶼鄉"
    },
    {
        "position": {
            "lat": "22.931996",
            "lng": "121.03351",
            "zoom": "10"
        },
        "postal": "953",
        "id": "343",
        "cwb_id": "1001413",
        "name": "延平鄉"
    },
    {
        "position": {
            "lat": "22.7447427",
            "lng": "121.0105733",
            "zoom": "8"
        },
        "postal": "954",
        "id": "344",
        "cwb_id": "1001404",
        "name": "卑南鄉"
    },
    {
        "position": {
            "lat": "22.9580514",
            "lng": "121.1595842",
            "zoom": "10"
        },
        "postal": "955",
        "id": "345",
        "cwb_id": "1001405",
        "name": "鹿野鄉"
    },
    {
        "position": {
            "lat": "23.0170591",
            "lng": "121.1824925",
            "zoom": "11"
        },
        "postal": "956",
        "id": "346",
        "cwb_id": "1001403",
        "name": "關山鎮"
    },
    {
        "position": {
            "lat": "23.1028073",
            "lng": "121.03351",
            "zoom": "10"
        },
        "postal": "957",
        "id": "347",
        "cwb_id": "1001412",
        "name": "海端鄉"
    },
    {
        "position": {
            "lat": "23.0923579",
            "lng": "121.2282958",
            "zoom": "9"
        },
        "postal": "958",
        "id": "348",
        "cwb_id": "1001406",
        "name": "池上鄉"
    },
    {
        "position": {
            "lat": "23.0691722",
            "lng": "121.2855249",
            "zoom": "11"
        },
        "postal": "959",
        "id": "349",
        "cwb_id": "1001407",
        "name": "東河鄉"
    },
    {
        "position": {
            "lat": "23.1261527",
            "lng": "121.3655989",
            "zoom": "10"
        },
        "postal": "961",
        "id": "350",
        "cwb_id": "1001402",
        "name": "成功鎮"
    },
    {
        "position": {
            "lat": "23.3451824",
            "lng": "121.43419",
            "zoom": "10"
        },
        "postal": "962",
        "id": "351",
        "cwb_id": "1001408",
        "name": "長濱鄉"
    },
    {
        "position": {
            "lat": "22.5540555",
            "lng": "120.9532123",
            "zoom": "10"
        },
        "postal": "963",
        "id": "352",
        "cwb_id": "1001409",
        "name": "太麻里鄉"
    },
    {
        "position": {
            "lat": "22.5604145",
            "lng": "120.8728615",
            "zoom": "11"
        },
        "postal": "964",
        "id": "353",
        "cwb_id": "1001414",
        "name": "金峰鄉"
    },
    {
        "position": {
            "lat": "22.4141954",
            "lng": "120.907304",
            "zoom": "9"
        },
        "postal": "965",
        "id": "354",
        "cwb_id": "1001410",
        "name": "大武鄉"
    },
    {
        "position": {
            "lat": "22.3990588",
            "lng": "120.8269231",
            "zoom": "10"
        },
        "postal": "966",
        "id": "355",
        "cwb_id": "1001415",
        "name": "達仁鄉"
    },
    {
        "position": {
            "lat": "23.9910732",
            "lng": "121.6111949",
            "zoom": "7"
        },
        "postal": "970",
        "id": "356",
        "cwb_id": "1001501",
        "name": "花蓮市"
    },
    {
        "position": {
            "lat": "24.0548042",
            "lng": "121.6111949",
            "zoom": "11"
        },
        "postal": "971",
        "id": "357",
        "cwb_id": "1001504",
        "name": "新城鄉"
    },
    {
        "position": {
            "lat": "24.2258575",
            "lng": "121.5370003",
            "zoom": "9"
        },
        "postal": "972",
        "id": "358",
        "cwb_id": "1001511",
        "name": "秀林鄉"
    },
    {
        "position": {
            "lat": "23.9523849",
            "lng": "121.57125",
            "zoom": "10"
        },
        "postal": "973",
        "id": "359",
        "cwb_id": "1001505",
        "name": "吉安鄉"
    },
    {
        "position": {
            "lat": "23.8593411",
            "lng": "121.5598345",
            "zoom": "11"
        },
        "postal": "974",
        "id": "360",
        "cwb_id": "1001506",
        "name": "壽豐鄉"
    },
    {
        "position": {
            "lat": "23.7443841",
            "lng": "121.4570447",
            "zoom": "10"
        },
        "postal": "975",
        "id": "361",
        "cwb_id": "1001502",
        "name": "鳳林鎮"
    },
    {
        "position": {
            "lat": "23.6350647",
            "lng": "121.422761",
            "zoom": "10"
        },
        "postal": "976",
        "id": "362",
        "cwb_id": "1001507",
        "name": "光復鄉"
    },
    {
        "position": {
            "lat": "23.5851901",
            "lng": "121.5027404",
            "zoom": "10"
        },
        "postal": "977",
        "id": "363",
        "cwb_id": "1001508",
        "name": "豐濱鄉"
    },
    {
        "position": {
            "lat": "23.5205619",
            "lng": "121.4113308",
            "zoom": "9"
        },
        "postal": "978",
        "id": "364",
        "cwb_id": "1001509",
        "name": "瑞穗鄉"
    },
    {
        "position": {
            "lat": "23.7245744",
            "lng": "121.3084088",
            "zoom": "10"
        },
        "postal": "979",
        "id": "365",
        "cwb_id": "1001512",
        "name": "萬榮鄉"
    },
    {
        "position": {
            "lat": "23.3898217",
            "lng": "121.3770336",
            "zoom": "10"
        },
        "postal": "981",
        "id": "366",
        "cwb_id": "1001503",
        "name": "玉里鎮"
    },
    {
        "position": {
            "lat": "23.404007",
            "lng": "121.2168466",
            "zoom": "8"
        },
        "postal": "982",
        "id": "367",
        "cwb_id": "1001513",
        "name": "卓溪鄉"
    },
    {
        "position": {
            "lat": "23.154416",
            "lng": "121.2855249",
            "zoom": "11"
        },
        "postal": "983",
        "id": "368",
        "cwb_id": "1001510",
        "name": "富里鄉"
    }
]